[
  {
    "id": 1,
    "name": "Erciyes Hukuk Bürosu",
    "field": "Ceza Hukuku",
    "city": "Kayseri",
    "description": "Ceza hukuku davalarında uzman kadro.",
    "keywords": "kayseri, ceza, tahkim, tazminat",
    "phone": "+90 352 123 45 67",
    "address": "Cumhuriyet Mah. Adalet Sok. No:1, Kayseri",
    "hours": "Pzt-Cuma: 09:00-18:00"
  },
  {
    "id": 2,
    "name": "Demirler Hukuk",
    "field": "Ticaret Hukuku",
    "city": "Ankara",
    "description": "Ticaret, şirket danışmanlığı ve sözleşme yönetimi.",
    "keywords": "ankara, ticaret, alacak, verecek, borç, mal davası, icra, tazminat",
    "phone": "+90 312 987 65 43",
    "address": "Kızılay Cad. İş Merkezi No:5, Ankara",
    "hours": "Pzt-Cuma: 09:00-18:00"
  },
  {
    "id": 3,
    "name": "Kaya Hukuk",
    "field": "Aile Hukuku",
    "city": "İzmir",
    "description": "Aile içi davalarda profesyonel temsil.",
    "keywords": "izmir, aile, boşanma, evlenme, evlilik, mal paylaşımı, nafaka",
    "phone": "+90 232 234 56 78",
    "address": "Konak Sok. Adliye Yanı No:10, İzmir",
    "hours": "Pzt-Cuma: 09:00-18:00"
  },
  {
    "id": 4,
    "name": "Çelik Hukuk Ofisi",
    "field": "İş Hukuku",
    "city": "Bursa",
    "description": "İşçi-işveren ilişkilerinde dava ve danışmanlık.",
    "keywords": "bursa, iş, şirket, işçi, işveren, tazminat",
    "phone": "+90 224 567 89 01",
    "address": "Osmangazi Bulvarı Hukuk Plaza No:3, Bursa",
    "hours": "Pzt-Cuma: 09:00-18:00"
  },
  {
    "id": 5,
    "name": "Toprak Legal",
    "field": "Ceza Hukuku",
    "city": "İstanbul",
    "description": "Ceza davaları, savunma ve temsil.",
    "keywords": "istanbul, ceza, tahkim, tazminat, yaralama, gasp, şiddet",
    "phone": "+90 212 345 67 89",
    "address": "Beşiktaş Cad. Adalet Sarayı Karşısı No:7, İstanbul",
    "hours": "Pzt-Cuma: 09:00-18:00"
  },
  {
    "id": 6,
    "name": "Aksoy & Ortakları",
    "field": "Vergi Hukuku",
    "city": "İstanbul",
    "description": "Vergi düzenlemeleri ve dava süreçlerinde danışmanlık.",
    "keywords": "vergi, istanbul, maliye, inceleme, denetim, yükümlülük",
    "phone": "+90 216 111 22 33",
    "address": "Kadıköy Meydanı Hukuk Ofisleri No:12, İstanbul",
    "hours": "Pzt-Cuma: 09:00-18:00"
  },
  {
    "id": 7,
    "name": "Yıldız Hukuk",
    "field": "İdare Hukuku",
    "city": "Eskişehir",
    "description": "İdari işlemlere karşı dava ve temsil.",
    "keywords": "idare, eskişehir, memur, disiplin, kamu, iptal davası",
    "phone": "+90 222 333 44 55",
    "address": "Atatürk Bulvarı Hukuk Apt. No:8, Eskişehir",
    "hours": "Pzt-Cuma: 09:00-18:00"
  },
  {
    "id": 8,
    "name": "Öztürk Hukuk Ofisi",
    "field": "Bilişim Hukuku",
    "city": "Gaziantep",
    "description": "Siber suçlar ve dijital ortam anlaşmazlıklarında destek.",
    "keywords": "bilişim, siber, internet, saldırı, dolandırıcılık, kişisel veriler",
    "phone": "+90 342 666 77 88",
    "address": "Şehitkamil Sanayi Böl. Teknokent No:4, Gaziantep",
    "hours": "Pzt-Cuma: 09:00-18:00"
  },
  {
    "id": 9,
    "name": "Arslan Hukuk Bürosu",
    "field": "Sigorta Hukuku",
    "city": "Adana",
    "description": "Sigorta uyuşmazlıklarında etkili temsil.",
    "keywords": "sigorta, hasar, poliçe, tazminat, adana, ekspertiz",
    "phone": "+90 322 999 00 11",
    "address": "Çukurova Cad. Hukuk Büroları Sitesi No:2, Adana",
    "hours": "Pzt-Cuma: 09:00-18:00"
  },
  {
    "id": 10,
    "name": "Fener Hukuk",
    "field": "Deniz Ticareti Hukuku",
    "city": "Mersin",
    "description": "Deniz ticareti ve taşımacılık hukuku üzerine uzman kadro.",
    "keywords": "deniz, mersin, liman, gemi, yük, navlun, taşıma",
    "phone": "+90 324 777 88 99",
    "address": "Akdeniz Limanı Cad. Gemi Plaza No:6, Mersin",
    "hours": "Pzt-Cuma: 09:00-18:00"
  },
  {
    "id": 11,
    "name": "Güneş Hukuk Bürosu",
    "field": "Gayrimenkul Hukuku",
    "city": "Ankara",
    "description": "Emlak alım satım, kira ve tapu davalarında danışmanlık.",
    "keywords": "gayrimenkul, ankara, emlak, tapu, kira, miras, ipotek",
    "phone": "+90 312 222 33 44",
    "address": "Çankaya Sok. Emlak İş Merkezi No:15, Ankara",
    "hours": "Pzt-Cuma: 09:00-18:00"
  },
  {
    "id": 12,
    "name": "Umut Hukuk Ofisi",
    "field": "Miras Hukuku",
    "city": "İzmir",
    "description": "Miras paylaşımı, vasiyetname ve veraset davalarında profesyonel destek.",
    "keywords": "miras, izmir, vasiyet, veraset, tereke, mal paylaşımı",
    "phone": "+90 232 444 55 66",
    "address": "Alsancak Meydanı Miras Hukuk Büroları No:9, İzmir",
    "hours": "Pzt-Cuma: 09:00-18:00"
  },
  {
    "id": 13,
    "name": "Kartal Hukuk",
    "field": "Tüketici Hukuku",
    "city": "İstanbul",
    "description": "Tüketici hakları, ayıplı mal ve hizmet davalarında uzmanlık.",
    "keywords": "tüketici, istanbul, ayıplı mal, hizmet, garanti, iade",
    "phone": "+90 212 555 66 77",
    "address": "Şişli Merkez Mah. Tüketici Hakları Apt. No:20, İstanbul",
    "hours": "Pzt-Cuma: 09:00-18:00"
  },
  {
    "id": 14,
    "name": "Ay Hukuk Bürosu",
    "field": "Fikri Mülkiyet Hukuku",
    "city": "Bursa",
    "description": "Patent, marka ve telif hakları konularında danışmanlık ve dava.",
    "keywords": "fikri mülkiyet, bursa, patent, marka, telif, tasarım",
    "phone": "+90 224 888 99 00",
    "address": "Nilüfer Cad. Fikri Mülkiyet Merkezi No:14, Bursa",
    "hours": "Pzt-Cuma: 09:00-18:00"
  },
  {
    "id": 15,
    "name": "Şahin Hukuk",
    "field": "İcra ve İflas Hukuku",
    "city": "Adana",
    "description": "Alacak tahsili, icra takibi ve iflas davalarında etkili çözüm.",
    "keywords": "icra, iflas, adana, alacak, borç, haciz, takip",
    "phone": "+90 322 111 22 33",
    "address": "Seyhan Cad. İcra Müdürlüğü Karşısı No:1, Adana",
    "hours": "Pzt-Cuma: 09:00-18:00"
  },
  {
    "id": 16,
    "name": "Deniz Hukuk Ofisi",
    "field": "Sağlık Hukuku",
    "city": "Antalya",
    "description": "Tıp hukuku, malpraktis ve hasta hakları konularında destek.",
    "keywords": "sağlık, antalya, tıp, malpraktis, hasta hakları, sigorta",
    "phone": "+90 242 333 44 55",
    "address": "Muratpaşa Cad. Sağlık Hukuk Merkezi No:11, Antalya",
    "hours": "Pzt-Cuma: 09:00-18:00"
  },
  {
    "id": 17,
    "name": "Doğa Hukuk Bürosu",
    "field": "Çevre Hukuku",
    "city": "Muğla",
    "description": "Çevre mevzuatı, kirlilik ve doğa koruma davalarında danışmanlık.",
    "keywords": "çevre, muğla, kirlilik, doğa, imar, planlama",
    "phone": "+90 252 666 77 88",
    "address": "Fethiye Yolu Doğa Sitesi No:7, Muğla",
    "hours": "Pzt-Cuma: 09:00-18:00"
  },
  {
    "id": 18,
    "name": "Aslaner Hukuk",
    "field": "Bankacılık ve Finans Hukuku",
    "city": "İstanbul",
    "description": "Bankacılık işlemleri, kredi sözleşmeleri ve finansal davalar.",
    "keywords": "bankacılık, finans, istanbul, kredi, sözleşme, takip",
    "phone": "+90 212 999 00 11",
    "address": "Levent İş Kuleleri Bankacılık Katı No:30, İstanbul",
    "hours": "Pzt-Cuma: 09:00-18:00"
  },
  {
    "id": 19,
    "name": "Cemre Hukuk Bürosu",
    "field": "Spor Hukuku",
    "city": "Ankara",
    "description": "Sporcu sözleşmeleri, kulüp davaları ve federasyon hukuku.",
    "keywords": "spor, ankara, sporcu, kulüp, federasyon, sözleşme",
    "phone": "+90 312 123 78 90",
    "address": "Bahçelievler Spor Hukuk Bürosu No:25, Ankara",
    "hours": "Pzt-Cuma: 09:00-18:00"
  },
  {
    "id": 20,
    "name": "Defne Hukuk",
    "field": "Uluslararası Hukuk",
    "city": "İstanbul",
    "description": "Uluslararası anlaşmazlıklar ve yabancılar hukuku.",
    "keywords": "uluslararası, istanbul, yabancılar, anlaşmazlık, vatandaşlık",
    "phone": "+90 216 222 33 44",
    "address": "Nişantaşı Cad. Uluslararası Hukuk Ofisleri No:18, İstanbul",
    "hours": "Pzt-Cuma: 09:00-18:00"
  },
  {
    "id": 21,
    "name": "Elmas Hukuk Bürosu",
    "field": "Kamulaştırma Hukuku",
    "city": "İzmir",
    "description": "Kamulaştırma davaları ve bedel tespiti.",
    "keywords": "kamulaştırma, izmir, bedel, tespit, kamulaştırmasız el atma",
    "phone": "+90 232 555 66 77",
    "address": "Bornova Cad. Kamulaştırma Danışmanlık No:5, İzmir",
    "hours": "Pzt-Cuma: 09:00-18:00"
  },
  {
    "id": 22,
    "name": "Ferhat Hukuk",
    "field": "Telif Hukuku",
    "city": "Ankara",
    "description": "Eser sahipliği ve telif hakları ihlallerinde destek.",
    "keywords": "telif, ankara, eser, hak, ihlal, sanat",
    "phone": "+90 312 666 77 88",
    "address": "Kızılay Kültür Merkezi Yanı Telif Hukuk No:3, Ankara",
    "hours": "Pzt-Cuma: 09:00-18:00"
  },
  {
    "id": 23,
    "name": "Gizem Hukuk Ofisi",
    "field": "Enerji Hukuku",
    "city": "İstanbul",
    "description": "Enerji projeleri, ruhsatlandırma ve yasal danışmanlık.",
    "keywords": "enerji, istanbul, proje, ruhsat, petrol, doğalgaz",
    "phone": "+90 212 777 88 99",
    "address": "Ataşehir Finans Merkezi Enerji Katı No:10, İstanbul",
    "hours": "Pzt-Cuma: 09:00-18:00"
  },
  {
    "id": 24,
    "name": "Hakan Hukuk Bürosu",
    "field": "Ceza Hukuku",
    "city": "Bursa",
    "description": "Ağır ceza davalarında savunma ve danışmanlık.",
    "keywords": "bursa, ceza, ağır ceza, gasp, dolandırıcılık",
    "phone": "+90 224 111 22 33",
    "address": "Cumhuriyet Cad. Adliye Karşısı No:19, Bursa",
    "hours": "Pzt-Cuma: 09:00-18:00"
  },
  {
    "id": 25,
    "name": "İpek Hukuk",
    "field": "İş Hukuku",
    "city": "Kocaeli",
    "description": "İş kazaları, tazminat ve işten çıkarma davaları.",
    "keywords": "iş, kocaeli, iş kazası, tazminat, kıdem, ihbar",
    "phone": "+90 262 333 44 55",
    "address": "İzmit Sanayi Bölgesi İş Merkezi No:6, Kocaeli",
    "hours": "Pzt-Cuma: 09:00-18:00"
  },
  {
    "id": 26,
    "name": "Jale Hukuk Bürosu",
    "field": "Ticaret Hukuku",
    "city": "Gaziantep",
    "description": "Şirket kuruluşları, birleşmeleri ve ticari sözleşmeler.",
    "keywords": "ticaret, gaziantep, şirket, sözleşme, birleşme, devralma",
    "phone": "+90 342 555 66 77",
    "address": "Şahinbey Ticaret Merkezi No:17, Gaziantep",
    "hours": "Pzt-Cuma: 09:00-18:00"
  },
  {
    "id": 27,
    "name": "Kaan Hukuk Ofisi",
    "field": "Aile Hukuku",
    "city": "Adana",
    "description": "Boşanma, nafaka ve velayet davalarında profesyonel temsil.",
    "keywords": "aile, adana, boşanma, nafaka, velayet, anlaşmalı boşanma",
    "phone": "+90 322 888 99 00",
    "address": "Reşatbey Cad. Aile Mahkemesi Yanı No:22, Adana",
    "hours": "Pzt-Cuma: 09:00-18:00"
  },
  {
    "id": 28,
    "name": "Lale Hukuk",
    "field": "Vergi Hukuku",
    "city": "İzmir",
    "description": "Vergi uyuşmazlıkları ve vergi cezalarına itiraz.",
    "keywords": "vergi, izmir, ceza, itiraz, maliye, dava",
    "phone": "+90 232 111 22 33",
    "address": "Alsancak Vergi Dairesi Karşısı No:1, İzmir",
    "hours": "Pzt-Cuma: 09:00-18:00"
  },
  {
    "id": 29,
    "name": "Mert Hukuk Bürosu",
    "field": "İdare Hukuku",
    "city": "Denizli",
    "description": "İdari para cezaları ve idari sözleşmeler.",
    "keywords": "idare, denizli, para cezası, sözleşme, memur",
    "phone": "+90 258 444 55 66",
    "address": "Çamlık Bulvarı İdari Hukuk Merkezi No:4, Denizli",
    "hours": "Pzt-Cuma: 09:00-18:00"
  },
  {
    "id": 30,
    "name": "Nil Hukuk",
    "field": "Bilişim Hukuku",
    "city": "Ankara",
    "description": "Kişisel verilerin korunması ve siber güvenlik hukuku.",
    "keywords": "bilişim, ankara, kişisel veri, siber güvenlik, internet",
    "phone": "+90 312 777 88 99",
    "address": "Bilişim Vadisi Teknokent Kampüsü No:1, Ankara",
    "hours": "Pzt-Cuma: 09:00-18:00"
  },
  {
    "id": 31,
    "name": "Oya Hukuk Ofisi",
    "field": "Sigorta Hukuku",
    "city": "Samsun",
    "description": "Hayat sigortası, kasko ve trafik sigortası davaları.",
    "keywords": "sigorta, samsun, kasko, trafik, hayat, hasar",
    "phone": "+90 362 999 00 11",
    "address": "Atakum Sahil Cad. Sigorta Hukuk Ofisi No:15, Samsun",
    "hours": "Pzt-Cuma: 09:00-18:00"
  },
  {
    "id": 32,
    "name": "Pelin Hukuk Bürosu",
    "field": "Deniz Ticareti Hukuku",
    "city": "İzmir",
    "description": "Gemi ipoteği, çatma ve kurtarma davaları.",
    "keywords": "deniz, izmir, gemi, ipotek, çatma, kurtarma",
    "phone": "+90 232 123 45 98",
    "address": "Konak Liman Cad. Deniz Ticaret Hukuku No:2, İzmir",
    "hours": "Pzt-Cuma: 09:00-18:00"
  },
  {
    "id": 33,
    "name": "Rüya Hukuk",
    "field": "Gayrimenkul Hukuku",
    "city": "Antalya",
    "description": "Kat mülkiyeti, kentsel dönüşüm ve imar hukuku.",
    "keywords": "gayrimenkul, antalya, kat mülkiyeti, kentsel dönüşüm, imar",
    "phone": "+90 242 555 66 77",
    "address": "Lara Caddesi Gayrimenkul Merkezi No:28, Antalya",
    "hours": "Pzt-Cuma: 09:00-18:00"
  },
  {
    "id": 34,
    "name": "Selçuk Hukuk Ofisi",
    "field": "Miras Hukuku",
    "city": "Konya",
    "description": "Mirasçılık belgesi, tenkis ve denkleştirme davaları.",
    "keywords": "miras, konya, mirasçılık, tenkis, denkleştirme",
    "phone": "+90 332 222 33 44",
    "address": "Meram Cad. Miras Hukuk Ofisi No:16, Konya",
    "hours": "Pzt-Cuma: 09:00-18:00"
  },
  {
    "id": 35,
    "name": "Tuna Hukuk Bürosu",
    "field": "Tüketici Hukuku",
    "city": "Kayseri",
    "description": "Tüketici kredileri, abonelik sözleşmeleri ve ayıplı hizmet.",
    "keywords": "tüketici, kayseri, kredi, abonelik, hizmet, hakem heyeti",
    "phone": "+90 352 888 99 00",
    "address": "Sivas Cad. Tüketici Hakları Merkezi No:3, Kayseri",
    "hours": "Pzt-Cuma: 09:00-18:00"
  },
  {
    "id": 36,
    "name": "Ufuk Hukuk",
    "field": "Fikri Mülkiyet Hukuku",
    "city": "İstanbul",
    "description": "Ticari sırlar, yazılım patentleri ve endüstriyel tasarımlar.",
    "keywords": "fikri mülkiyet, istanbul, ticari sır, yazılım, endüstriyel tasarım",
    "phone": "+90 212 111 22 33",
    "address": "Maslak Plazalar Bölgesi Fikri Mülkiyet Katı No:7, İstanbul",
    "hours": "Pzt-Cuma: 09:00-18:00"
  },
  {
    "id": 37,
    "name": "Vural Hukuk Ofisi",
    "field": "İcra ve İflas Hukuku",
    "city": "Bursa",
    "description": "Çek, senet davaları ve konkordato süreçleri.",
    "keywords": "icra, iflas, bursa, çek, senet, konkordato",
    "phone": "+90 224 444 55 66",
    "address": "Setbaşı İcra Dairesi Karşısı No:12, Bursa",
    "hours": "Pzt-Cuma: 09:00-18:00"
  },
  {
    "id": 38,
    "name": "Yasemin Hukuk Bürosu",
    "field": "Sağlık Hukuku",
    "city": "İzmir",
    "description": "Estetik ameliyat davaları ve tıbbi cihaz sorumluluğu.",
    "keywords": "sağlık, izmir, estetik, ameliyat, tıbbi cihaz, sorumluluk",
    "phone": "+90 232 777 88 99",
    "address": "Alsancak Hastaneler Bölgesi Sağlık Hukuku No:4, İzmir",
    "hours": "Pzt-Cuma: 09:00-18:00"
  },
  {
    "id": 39,
    "name": "Zeynep Hukuk",
    "field": "Çevre Hukuku",
    "city": "Antalya",
    "description": "ÇED süreçleri, atık yönetimi ve çevre izinleri.",
    "keywords": "çevre, antalya, ÇED, atık, izin, mevzuat",
    "phone": "+90 242 123 45 67",
    "address": "Konyaaltı Cad. Çevre Hukuku Ofisi No:9, Antalya",
    "hours": "Pzt-Cuma: 09:00-18:00"
  },
  {
    "id": 40,
    "name": "Kuzey Hukuk Bürosu",
    "field": "Bankacılık ve Finans Hukuku",
    "city": "Ankara",
    "description": "Sendikasyon kredileri, teminat mektupları ve faktoring işlemleri.",
    "keywords": "bankacılık, finans, ankara, kredi, teminat, faktoring",
    "phone": "+90 312 999 00 11",
    "address": "Söğütözü Bankacılık ve Finans Merkezi No:1, Ankara",
    "hours": "Pzt-Cuma: 09:00-18:00"
  },
  {
    "id": 41,
    "name": "Güney Hukuk",
    "field": "Spor Hukuku",
    "city": "İstanbul",
    "description": "Doping davaları, transfer sözleşmeleri ve spor federasyonu itirazları.",
    "keywords": "spor, istanbul, doping, transfer, federasyon, itiraz",
    "phone": "+90 216 123 45 67",
    "address": "Kadıköy Spor Kompleksi Yanı No:10, İstanbul",
    "hours": "Pzt-Cuma: 09:00-18:00"
  },
  {
    "id": 42,
    "name": "Doğu Hukuk Ofisi",
    "field": "Uluslararası Hukuk",
    "city": "Ankara",
    "description": "Uluslararası ticaret anlaşmazlıkları ve tahkim.",
    "keywords": "uluslararası, ankara, ticaret, anlaşmazlık, tahkim, gümrük",
    "phone": "+90 312 234 56 78",
    "address": "Gaziosmanpaşa Uluslararası Hukuk Ofisleri No:14, Ankara",
    "hours": "Pzt-Cuma: 09:00-18:00"
  },
  {
    "id": 43,
    "name": "Batı Hukuk Bürosu",
    "field": "Kamulaştırma Hukuku",
    "city": "İzmir",
    "description": "Acele kamulaştırma ve özel mülkiyetin korunması.",
    "keywords": "kamulaştırma, izmir, acele kamulaştırma, mülkiyet, koruma",
    "phone": "+90 232 876 54 32",
    "address": "Karşıyaka Sahil Yolu Kamulaştırma Bürosu No:1, İzmir",
    "hours": "Pzt-Cuma: 09:00-18:00"
  },
  {
    "id": 44,
    "name": "Çağrı Hukuk",
    "field": "Telif Hukuku",
    "city": "İstanbul",
    "description": "Müzik, sinema ve yayıncılık telif hakları.",
    "keywords": "telif, istanbul, müzik, sinema, yayıncılık, sanat",
    "phone": "+90 212 333 44 55",
    "address": "Beyoğlu Sanat Merkezi Telif Hakları Bölümü No:5, İstanbul",
    "hours": "Pzt-Cuma: 09:00-18:00"
  },
  {
    "id": 45,
    "name": "Ege Hukuk Ofisi",
    "field": "Enerji Hukuku",
    "city": "İzmir",
    "description": "Yenilenebilir enerji projeleri ve lisanslama.",
    "keywords": "enerji, izmir, yenilenebilir, lisans, rüzgar, güneş",
    "phone": "+90 232 666 77 88",
    "address": "Urla Enerji Teknoloji Bölgesi Hukuk Ofisi No:2, İzmir",
    "hours": "Pzt-Cuma: 09:00-18:00"
  },
  {
    "id": 46,
    "name": "Filiz Hukuk Bürosu",
    "field": "Ceza Hukuku",
    "city": "Ankara",
    "description": "Beyaz yaka suçları ve ekonomik suçlar.",
    "keywords": "ankara, ceza, beyaz yaka, ekonomik suç, dolandırıcılık, rüşvet",
    "phone": "+90 312 111 22 33",
    "address": "Çayyolu Adalet Apt. No:8, Ankara",
    "hours": "Pzt-Cuma: 09:00-18:00"
  },
  {
    "id": 47,
    "name": "Gonca Hukuk",
    "field": "İş Hukuku",
    "city": "Eskişehir",
    "description": "Sendika hukuku ve toplu iş sözleşmeleri.",
    "keywords": "iş, eskişehir, sendika, toplu iş, sözleşme, grev",
    "phone": "+90 222 555 66 77",
    "address": "Tepebaşı İş Hukuk Merkezi No:11, Eskişehir",
    "hours": "Pzt-Cuma: 09:00-18:00"
  },
  {
    "id": 48,
    "name": "Halil Hukuk Ofisi",
    "field": "Ticaret Hukuku",
    "city": "İstanbul",
    "description": "Haksız rekabet, ticari sırların korunması ve franchise sözleşmeleri.",
    "keywords": "ticaret, istanbul, haksız rekabet, ticari sır, franchise",
    "phone": "+90 212 888 99 00",
    "address": "Taksim Meydanı Ticaret Hukuku Ofisleri No:24, İstanbul",
    "hours": "Pzt-Cuma: 09:00-18:00"
  },
  {
    "id": 49,
    "name": "İbrahim Hukuk Bürosu",
    "field": "Aile Hukuku",
    "city": "Kayseri",
    "description": "Evlat edinme, nişanlanma ve soybağı davaları.",
    "keywords": "aile, kayseri, evlat edinme, nişanlanma, soybağı, nafaka",
    "phone": "+90 352 111 22 33",
    "address": "Kocasinan Aile Mahkemesi Yanı No:7, Kayseri",
    "hours": "Pzt-Cuma: 09:00-18:00"
  },
  {
    "id": 50,
    "name": "Kader Hukuk",
    "field": "Vergi Hukuku",
    "city": "Bursa",
    "description": "KDV, gelir vergisi ve kurumlar vergisi uyuşmazlıkları.",
    "keywords": "vergi, bursa, KDV, gelir vergisi, kurumlar vergisi, uyuşmazlık",
    "phone": "+90 224 777 88 99",
    "address": "Nilüfer Vergi Dairesi Civarı No:1, Bursa",
    "hours": "Pzt-Cuma: 09:00-18:00"
  },
  {
    "id": 51,
    "name": "Levent Hukuk Ofisi",
    "field": "İdare Hukuku",
    "city": "İzmir",
    "description": "İdari yargılama ve kamu ihale hukuku.",
    "keywords": "idare, izmir, yargılama, kamu ihale, sözleşme, iptal",
    "phone": "+90 232 222 33 44",
    "address": "Bayraklı İdare Mahkemesi Yanı No:13, İzmir",
    "hours": "Pzt-Cuma: 09:00-18:00"
  },
  {
    "id": 52,
    "name": "Mihriban Hukuk Bürosu",
    "field": "Bilişim Hukuku",
    "city": "İstanbul",
    "description": "E-ticaret hukuku, alan adı uyuşmazlıkları ve siber suçlar.",
    "keywords": "bilişim, istanbul, e-ticaret, alan adı, siber suç, veri",
    "phone": "+90 212 444 55 66",
    "address": "Maslak Teknopark Bilişim Hukuku Ofisi No:1, İstanbul",
    "hours": "Pzt-Cuma: 09:00-18:00"
  },
  {
    "id": 53,
    "name": "Nalan Hukuk",
    "field": "Sigorta Hukuku",
    "city": "Adana",
    "description": "Ferdi kaza sigortası, yangın sigortası ve sorumluluk sigortası.",
    "keywords": "sigorta, adana, ferdi kaza, yangın, sorumluluk, hasar",
    "phone": "+90 322 777 88 99",
    "address": "Kurtuluş Cad. Sigorta Aracılık Hizmetleri No:10, Adana",
    "hours": "Pzt-Cuma: 09:00-18:00"
  },
  {
    "id": 54,
    "name": "Onur Hukuk Ofisi",
    "field": "Deniz Ticareti Hukuku",
    "city": "Antalya",
    "description": "Yük ve yolcu taşımacılığı hukuku, deniz kazaları.",
    "keywords": "deniz, antalya, yük, yolcu, taşıma, kaza, sorumluluk",
    "phone": "+90 242 999 00 11",
    "address": "Kaleici Liman Bölgesi Deniz Hukuku No:3, Antalya",
    "hours": "Pzt-Cuma: 09:00-18:00"
  },
  {
    "id": 55,
    "name": "Pınar Hukuk Bürosu",
    "field": "Gayrimenkul Hukuku",
    "city": "Ankara",
    "description": "Tapu iptal ve tescil davaları, ecrimisil davaları.",
    "keywords": "gayrimenkul, ankara, tapu iptal, tescil, ecrimisil, miras",
    "phone": "+90 312 123 45 67",
    "address": "Kavaklıdere Tapu Müdürlüğü Yanı No:2, Ankara",
    "hours": "Pzt-Cuma: 09:00-18:00"
  },
  {
    "id": 56,
    "name": "Rıza Hukuk",
    "field": "Miras Hukuku",
    "city": "Bursa",
    "description": "Miras sözleşmeleri, mirasın reddi ve ortaklığın giderilmesi.",
    "keywords": "miras, bursa, sözleşme, ret, ortaklık, paylaşım",
    "phone": "+90 224 333 44 55",
    "address": "Çekirge Cad. Miras Danışmanlık No:6, Bursa",
    "hours": "Pzt-Cuma: 09:00-18:00"
  },
  {
    "id": 57,
    "name": "Serkan Hukuk Ofisi",
    "field": "Tüketici Hukuku",
    "city": "İstanbul",
    "description": "Mesafeli satış sözleşmeleri, kapıdan satış ve ayıplı hizmetler.",
    "keywords": "tüketici, istanbul, mesafeli satış, kapıdan satış, ayıplı hizmet",
    "phone": "+90 212 555 66 77",
    "address": "Bakırköy Tüketici Mahkemesi Yakını No:19, İstanbul",
    "hours": "Pzt-Cuma: 09:00-18:00"
  },
  {
    "id": 58,
    "name": "Şebnem Hukuk Bürosu",
    "field": "Fikri Mülkiyet Hukuku",
    "city": "Ankara",
    "description": "Marka tescili, patent başvurusu ve endüstriyel tasarım tescili.",
    "keywords": "fikri mülkiyet, ankara, marka tescil, patent, tasarım, koruma",
    "phone": "+90 312 888 99 00",
    "address": "Çankaya Patent Ofisi Yanı No:33, Ankara",
    "hours": "Pzt-Cuma: 09:00-18:00"
  },
  {
    "id": 59,
    "name": "Taner Hukuk",
    "field": "İcra ve İflas Hukuku",
    "city": "İzmir",
    "description": "Konkordato projesi, borç yeniden yapılandırma ve iflas erteleme.",
    "keywords": "icra, iflas, izmir, konkordato, borç, yeniden yapılandırma",
    "phone": "+90 232 111 22 33",
    "address": "Konak İcra Dairesi Civarı No:7, İzmir",
    "hours": "Pzt-Cuma: 09:00-18:00"
  },
  {
    "id": 60,
    "name": "Uğur Hukuk Ofisi",
    "field": "Sağlık Hukuku",
    "city": "Adana",
    "description": "Eczacılık hukuku, ilaç sorumluluğu ve hasta mahremiyeti.",
    "keywords": "sağlık, adana, eczacılık, ilaç, mahremiyet, sorumluluk",
    "phone": "+90 322 444 55 66",
    "address": "Seyhan Hastane Karşısı No:18, Adana",
    "hours": "Pzt-Cuma: 09:00-18:00"
  }
]